var	exp	num_vo	type_vo	pap	model_time	zond_num	latitude	longitude	altitude	pitch_ange	yaw_angle	roll_angle	pitch_vel	yaw_vel	roll_vel	X	Y	Z	Vx	Vy	Vz	Ax	Ay	Az
1	1	1	-1	-1	0.000348	-1	0.9944814388333783	0.76093613542185	10000.00000090245	0	0	0	0	0	0	2526951.533548494	2406251.31128698	5333046.596180584	257.1519286847785	-47.85046335966769	-99.91605788740736	-6.922143577839961e-06	-2.450213948750843e-05	-6.128213284639514e-06
1	1	2	-1	-1	0.000348	-1	1.008029238392864	0.7952164024973141	10000.00000137836	0	0	0	0	0	0	2391946.802473145	2439383.482656941	5379734.993204052	258.4388104301473	-66.17031465429682	-85.03452377777791	-8.251107337391658e-06	-2.641870801696541e-05	-4.637939165532999e-06
1	1	1	-1	-1	0.101775	-1	0.9944785354619464	0.7609299735421527	10000.00007312	0	0	0	0	0	0	2526977.626792006	2406246.468463332	5333036.485556952	257.1962284948412	-47.80888417658016	-99.82180222935399	-0.002024428628260523	-0.007165819673394167	-0.00179223823863272
1	1	2	-1	-1	0.101775	-1	1.008026723901301	0.7952095488287042	10000.00021573715	0	0	0	0	0	0	2391973.037653606	2439376.794096325	5379726.419204332	258.528796298469	-66.07914318661447	-84.83114760324305	-0.002413093245008724	-0.007726333357547858	-0.001356397294747474
1	1	1	-1	-1	0.203202	-1	0.9944756320730538	0.7609238117173994	10000.00027140137	0	0	0	0	0	0	2527003.720035519	2406241.625639684	5333026.374933319	257.240528304904	-47.76730499349266	-99.72754657130064	-0.004041935112943206	-0.01430713720730083	-0.003578348263980801
1	1	2	-1	-1	0.203202	-1	1.008024209388443	0.7952026952146292	10000.00055613182	0	0	0	0	0	0	2391999.272834069	2439370.105535708	5379717.845204613	258.6187821667907	-65.98797171893213	-84.62777142870821	-0.004817935382680057	-0.01542624800707875	-0.002708156650329415
1	1	1	-1	-1	0.304629	-1	0.9944727286877563	0.7609176499143142	10000.00043486618	0	0	0	0	0	0	2527029.813213906	2406236.782593691	5333016.264248115	257.260696895402	-47.74902328398506	-99.68432475788005	-0.004969980407316122	-0.01726905324246622	-0.004554491665896645
1	1	2	-1	-1	0.304629	-1	1.008021694880017	0.7951958416220583	10000.00086175371	0	0	0	0	0	0	2392025.507937678	2439363.416735537	5379709.271156615	258.6599834706607	-65.94687767903802	-84.53414856083623	-0.005893514852143153	-0.01861278687133537	-0.003513214273008541
1	1	1	-1	-1	0.406056	-1	0.9944698253030356	0.7609114881376663	10000.00058657862	0	0	0	0	0	0	2527055.906336502	2406231.939357227	5333006.153510165	257.2601934469978	-47.75069938385695	-99.68482115019495	-0.004964737433843821	-0.01665067984641205	-0.004836776164237799
1	1	2	-1	-1	0.406056	-1	1.008019180372335	0.7951889880557258	10000.00115566142	0	0	0	0	0	0	2392051.742975449	2439356.727730153	5379700.697067259	258.6593934174272	-65.94868252921394	-84.53454599802582	-0.005830379822955183	-0.01793293682129252	-0.003849939184190369
1	1	1	-1	-1	0.50751	-1	0.9944669211307881	0.7609053247712452	10000.00084047671	0	0	0	0	0	0	2527082.006395442	2406227.094800758	5332996.040070466	257.2596899321774	-47.75236796445127	-99.68532131051967	-0.00495966568540066	-0.01605251168666606	-0.005109837412605244
1	1	2	-1	-1	0.50751	-1	1.008016665177437	0.7951821327150873	10000.00155176781	0	0	0	0	0	0	2392077.98498582	2439350.03691109	5379692.120686981	258.6588040175894	-65.95047912124194	-84.5349478683863	-0.005769321065006227	-0.01727539929373986	-0.004175607389895026
1	1	1	-1	-1	0.608937	-1	0.9944640177492972	0.7608991630441976	10000.00092064217	0	0	0	0	0	0	2527108.099387318	2406222.251149292	5332985.929193967	257.2591873967846	-47.75393648609896	-99.68586680740705	-0.004956754056976893	-0.01570924515941656	-0.005266541583844066
1	1	2	-1	-1	0.608937	-1	1.008014150673794	0.7951752791979627	10000.00177422632	0	0	0	0	0	0	2392104.219872293	2439343.347459257	5379683.546482994	258.6582249102147	-65.95216595142796	-84.53540374930679	-0.005734454292642162	-0.01689933728230718	-0.004361794346478343
1	1	1	-1	-1	0.710364	-1	0.9944611143503461	0.7608930013720914	10000.00112687424	0	0	0	0	0	0	2527134.192379194	2406217.407497826	5332975.818317468	257.2586848613918	-47.75550500774664	-99.68641230429444	-0.004953842428553125	-0.01536597863216706	-0.005423245755082888
1	1	2	-1	-1	0.710364	-1	1.008011636148857	0.7951684257353706	10000.00212271325	0	0	0	0	0	0	2392130.454758766	2439336.658007423	5379674.972279007	258.65764580284	-65.95385278161397	-84.53585963022728	-0.005699587520278097	-0.01652327527087451	-0.00454798130306166
1	1	1	-1	-1	0.8117909999999999	-1	0.9944582109537986	0.7608868397235345	10000.00127708632	0	0	0	0	0	0	2527160.285297662	2406212.563625215	5332965.707357472	257.2581827294878	-47.75702567292377	-99.68697964596586	-0.004951035919867554	-0.01503636205285659	-0.005573711198863648
1	1	2	-1	-1	0.8117909999999999	-1	1.008009121626917	0.7951615722961225	10000.00241524447	0	0	0	0	0	0	2392156.6895614	2439329.968317909	5379666.398003931	258.6570715515984	-65.95548731714898	-84.53634140947638	-0.005666145537205554	-0.01616289563544825	-0.004726442197801833
1	1	1	-1	-1	0.913218	-1	0.9944553075525326	0.760880678109782	10000.00143656414	0	0	0	0	0	0	2527186.378169043	2406207.71961075	5332955.596343916	257.2576808564029	-47.75851564044162	-99.68756100003166	-0.004948296840515432	-0.0147155012686702	-0.005720174794454094
1	1	2	-1	-1	0.913218	-1	1.008006607099266	0.7951547188914003	10000.00271706935	0	0	0	0	0	0	2392182.924310253	2439323.278475934	5379657.823683253	258.6565004153362	-65.95708830814209	-84.5368398012767	-0.005633617488983698	-0.01581257550149292	-0.004899947189785701
1	1	1	-1	-1	1.014672	-1	0.9944524033656394	0.7608745149032891	10000.00167535618	0	0	0	0	0	0	2527212.477967522	2406202.874252843	5332945.482615981	257.2571789453864	-47.75999453149738	-99.68814774651824	-0.004945596744060367	-0.01439782751487708	-0.0058651820201617
1	1	2	-1	-1	1.014672	-1	1.008004091886729	0.7951478637094154	10000.00309822615	0	0	0	0	0	0	2392209.16602156	2439316.586795167	5379649.247060212	258.6559302875792	-65.95867722571661	-84.53734451644122	-0.005601428019534033	-0.0154658952022076	-0.005071652680051511
1	1	1	-1	-1	1.116099	-1	0.9944494999621359	0.7608683533477741	10000.00176313613	0	0	0	0	0	0	2527238.570708535	2406198.029865366	5332935.371444709	257.2566777336487	-47.76140518594001	-99.68876530836097	-0.004943132192614627	-0.01409958901619172	-0.006001308255802055
1	1	2	-1	-1	1.116099	-1	1.008001577356493	0.7951410103624024	10000.00332845468	0	0	0	0	0	0	2392235.400623373	2439309.896552605	5379640.672602193	258.6553671741055	-65.96019180740068	-84.53788570426674	-0.005571300413407932	-0.01514138178544775	-0.005232398491586843
1	1	1	-1	-1	1.217526	-1	0.9944465965411736	0.7608621918471976	10000.00197698455	0	0	0	0	0	0	2527264.663449548	2406193.185477889	5332925.260273437	257.256176521911	-47.76281584038262	-99.6893828702037	-0.004940667641168886	-0.01380135051750635	-0.006137434491442409
1	1	2	-1	-1	1.217526	-1	1.007999062804964	0.7951341570699199	10000.00368471351	0	0	0	0	0	0	2392261.635225186	2439303.206310043	5379632.098144173	258.6548040606317	-65.96170638908472	-84.53842689209226	-0.005541172807281832	-0.0148168683686879	-0.005393144303122176
1	1	1	-1	-1	1.318953	-1	0.9944436931217192	0.7608560303715842	10000.00211361703	0	0	0	0	0	0	2527290.75610885	2406188.340868191	5332915.148997779	257.2556756986012	-47.76418010012512	-99.69002160555281	-0.004938285394088505	-0.01351632938769672	-0.006267501541230519
1	1	2	-1	-1	1.318953	-1	1.007996548255386	0.7951273038021233	10000.00396382995	0	0	0	0	0	0	2392287.869735921	2439296.515828989	5379623.52359358	258.6542456192099	-65.96317059365822	-84.53899302998029	-0.005512449403959696	-0.01450732610789713	-0.005546435296001901
1	1	1	-1	-1	1.420407	-1	0.9944407889208403	0.7608498672966167	10000.00228064228	0	0	0	0	0	0	2527316.855675559	2406183.494864169	5332905.034981314	257.2551749249535	-47.76552286724146	-99.690670485431	-0.004935941285108039	-0.01323745887388974	-0.006394748830445899
1	1	2	-1	-1	1.420407	-1	1.00799403302608	0.7951204487504699	10000.00427339505	0	0	0	0	0	0	2392314.111187412	2439289.823454571	5379614.946716823	258.6536892300585	-65.96461145616172	-84.53957107214644	-0.005484379851691331	-0.01420475411632566	-0.00569625525048049
1	1	1	-1	-1	1.521834	-1	0.9944378854814101	0.760843705907272	10000.00250395946	0	0	0	0	0	0	2527342.948268381	2406178.650077371	5332894.923618959	257.254674410346	-47.76685044269319	-99.69132596584647	-0.0049336305143297	-0.01296291155182638	-0.006520049040186553
1	1	2	-1	-1	1.521834	-1	1.00799151845224	0.795113595568214	10000.00463921204	0	0	0	0	0	0	2392340.345624392	2439283.132783487	5379606.372088848	258.6531344800181	-65.96603587479171	-84.54015691341131	-0.005456757638069694	-0.013907064973871	-0.005843663456029464
1	1	1	-1	-1	1.623261	-1	0.994434982046443	0.7608375445382197	10000.00259909313	0	0	0	0	0	0	2527369.040759141	2406173.805026485	5332884.812119774	257.2541743542126	-47.76812394158987	-99.69200613716689	-0.004931438999497119	-0.01270385331702228	-0.006638374873769182
1	1	2	-1	-1	1.623261	-1	1.007989003884014	0.7951067424059399	10000.00487695262	0	0	0	0	0	0	2392366.579948868	2439276.441829119	5379597.797337707	258.652585165366	-65.96740174726891	-84.54077174605766	-0.005430738907649943	-0.01362688208281008	-0.005982425292245795
1	1	1	-1	-1	1.724688	-1	0.9944320785940174	0.760831383224103	10000.00282029063	0	0	0	0	0	0	2527395.133249901	2406168.959975599	5332874.700620588	257.2536742980793	-47.76939744048656	-99.69268630848728	-0.004929247484664538	-0.01244479508221819	-0.006756700707351811
1	1	2	-1	-1	1.724688	-1	1.007986489294496	0.7950998892981938	10000.00524072349	0	0	0	0	0	0	2392392.814273343	2439269.750874752	5379589.222586566	258.6520358507139	-65.9687676197461	-84.54138657870399	-0.005404720177230192	-0.01334669919174915	-0.006121187128462125
1	1	1	-1	-1	1.826115	-1	0.9944291751420032	0.7608252219366813	10000.00294307806	0	0	0	0	0	0	2527421.225650662	2406164.114702966	5332864.588995421	257.2531746185015	-47.7706264346138	-99.69338679314384	-0.004927160036004631	-0.01219830614978327	-0.0068692008986811
1	1	2	-1	-1	1.826115	-1	1.007983974705663	0.7950930362167583	10000.00550616719	0	0	0	0	0	0	2392419.048499647	2439263.059682604	5379580.647720619	258.6514909912598	-65.97008547878019	-84.54202519009554	-0.005380054708394027	-0.01308081617439211	-0.006252853477966882
1	1	1	-1	-1	1.927569	-1	0.9944262709055652	0.7608190590546793	10000.00311734062	0	0	0	0	0	0	2527447.324967318	2406159.268066753	5332854.474636621	257.2526749311651	-47.77184095192532	-99.69409422125702	-0.004925106648022219	-0.0119559326287317	-0.006979793207971766
1	1	2	-1	-1	1.927569	-1	1.007981459433454	0.7950861813561861	10000.00582313538	0	0	0	0	0	0	2392445.28967688	2439256.366630157	5379572.070533843	258.6509474687314	-65.97138771753646	-84.5426718811995	-0.005355832819746092	-0.01281961905940066	-0.006382194649023246
1	1	1	-1	-1	2.028996	-1	0.9944233674313788	0.7608128978569936	10000.00332498457	0	0	0	0	0	0	2527473.417301045	2406154.422633232	5332844.362915574	257.2521755213724	-47.77303802394827	-99.69480927939448	-0.00492310069656015	-0.0117185169754826	-0.007088147604099472
1	1	2	-1	-1	2.028996	-1	1.007978944817732	0.7950793283636625	10000.00617345888	0	0	0	0	0	0	2392471.523830458	2439249.675265505	5379563.495580007	258.6504058006714	-65.97267119612081	-84.54332752079421	-0.005332115158439865	-0.01256398270164182	-0.006508795136798137
1	1	1	-1	-1	2.130423	-1	0.9944204639567352	0.7608067366873746	10000.0034272382	0	0	0	0	0	0	2527499.509542085	2406149.576982024	5332834.251059673	257.2516764726897	-47.77419232563926	-99.69554386735483	-0.004921211874816043	-0.01149332477745649	-0.007190985291012692
1	1	2	-1	-1	2.130423	-1	1.007976430201677	0.7950724753987545	10000.00641848892	0	0	0	0	0	0	2392497.75788392	2439242.983667473	5379554.920502001	258.6498684036835	-65.97390867815628	-84.54400594331804	-0.005309640937164909	-0.01232206328230774	-0.006628635477035918
1	1	1	-1	-1	2.23185	-1	0.9944175604646339	0.7608005755726884	10000.00365555845	0	0	0	0	0	0	2527525.601783125	2406144.731330817	5332824.139203771	257.2511774240071	-47.77534662733026	-99.69627845531518	-0.004919323053071935	-0.01126813257943037	-0.007293822977925914
1	1	2	-1	-1	2.23185	-1	1.007973915564332	0.7950656224883723	10000.00678954832	0	0	0	0	0	0	2392523.991937384	2439236.29206944	5379546.345423995	258.6493310066955	-65.97514616019173	-84.54468436584192	-0.005287166715889953	-0.01208014386297366	-0.0067484758172737
1	1	1	-1	-1	2.333304	-1	0.9944146561987941	0.7607944128465639	10000.00376429316	0	0	0	0	0	0	2527551.700871645	2406139.884169406	5332814.024507973	257.2506786018301	-47.7764588958029	-99.6970325654287	-0.004917516098789056	-0.01105492041146049	-0.007391193316251401
1	1	2	-1	-1	2.333304	-1	1.007971400256861	0.7950587677818672	10000.00704116467	0	0	0	0	0	0	2392550.232869178	2439229.598453935	5379537.767925715	258.6487976787756	-65.97633859750991	-84.54538543936036	-0.005265959572639185	-0.01185166293219045	-0.00686162945194442
1	1	1	-1	-1	2.434731	-1	0.9944117526920327	0.7607882518097397	10000.00394554995	0	0	0	0	0	0	2527577.792992988	2406135.038249991	5332803.912471743	257.2501799906788	-47.77756164571505	-99.69779068454669	-0.0049157275671772	-0.01084438751788387	-0.007487340887650906
1	1	2	-1	-1	2.434731	-1	1.007968885601979	0.7950519149483869	10000.00736525841	0	0	0	0	0	0	2392576.466794544	2439222.906568366	5379529.192680202	258.6482654102699	-65.97752083414834	-84.54609122077478	-0.005245035369691486	-0.01162618398873474	-0.006973289534634704
1	1	1	-1	-1	2.536158	-1	0.9944088491750216	0.7607820908164568	10000.0041372925	0	0	0	0	0	0	2527603.885068144	2406130.19223173	5332793.800363708	257.249681534428	-47.77864582929693	-99.69855728146989	-0.00491399758332316	-0.01063906997803553	-0.00758108900694774
1	1	2	-1	-1	2.536158	-1	1.007966370934749	0.7950450621579489	10000.0076998705	0	0	0	0	0	0	2392602.700670909	2439216.214576812	5379520.617367491	258.6477349827402	-65.97868324747263	-84.54680682060228	-0.005224661061131956	-0.01140662244302463	-0.00708202949441878
1	1	1	-1	-1	2.637585	-1	0.9944059456535635	0.7607759298575442	10000.00424646586	0	0	0	0	0	0	2527629.977059927	2406125.346035041	5332783.688126056	257.2491833577889	-47.77969649869628	-99.69933918172484	-0.004912373284341203	-0.01044316670121313	-0.007670505862366894
1	1	2	-1	-1	2.637585	-1	1.007963856262372	0.7950382094013076	10000.00795199722	0	0	0	0	0	0	2392628.934458822	2439209.522393945	5379512.041933481	258.6472078783665	-65.97980987762614	-84.54754014369995	-0.005205279369885921	-0.01119774242376669	-0.007185498324661255
1	1	1	-1	-1	2.739012	-1	0.9944030421146488	0.7607697689535615	10000.00448170584	0	0	0	0	0	0	2527656.06905171	2406120.499838351	5332773.575888404	257.2486851811498	-47.78074716809563	-99.70012108197979	-0.004910748985359246	-0.01024726342439073	-0.007759922717786048
1	1	2	-1	-1	2.739012	-1	1.007961341568705	0.7950313566991906	10000.0083301561	0	0	0	0	0	0	2392655.168246734	2439202.830211078	5379503.466499471	258.6466807739927	-65.98093650777966	-84.54827346679762	-0.005185897678639886	-0.01098886240450876	-0.007288967154903729
1	1	1	-1	-1	2.840466	-1	0.9944001378006593	0.760763606440288	10000.00457615219	0	0	0	0	0	0	2527682.16788263	2406115.652133531	5332763.46078836	257.24818720438	-47.78175813722275	-99.70092144250506	-0.004909199965699538	-0.01006268374304836	-0.007844176699928519
1	1	2	-1	-1	2.840466	-1	1.007958826203406	0.7950245022029204	10000.00856768154	0	0	0	0	0	0	2392681.408905957	2439196.136012859	5379494.888622084	258.6461574734539	-65.98202088737276	-84.5490280571843	-0.005167681931064672	-0.01079257084351216	-0.007386181337665035
1	1	1	-1	-1	2.941893	-1	0.9943972342439973	0.7607574456190441	10000.00476424117	0	0	0	0	0	0	2527708.259754914	2406110.805692353	5332753.348359548	257.2476894005099	-47.78276398262649	-99.70172380634335	-0.004907660551778159	-0.009879534514235446	-0.007927778453509076
1	1	2	-1	-1	2.941893	-1	1.007956311488547	0.7950176495823962	10000.00889879093	0	0	0	0	0	0	2392707.642568121	2439189.443567769	5379486.31300803	258.6456347911102	-65.98309981157479	-84.54978500548479	-0.005149613235577972	-0.01059786686073856	-0.007482606816941522
1	1	1	-1	-1	3.04332	-1	0.9943943306771806	0.7607512848411899	10000.00493988302	0	0	0	0	0	0	2527734.351571948	2406105.959142987	5332743.235840037	257.2471917593809	-47.78375047680861	-99.70253500368915	-0.004906171774934092	-0.009701866994185189	-0.008008900605303758
1	1	2	-1	-1	3.04332	-1	1.007953796761541	0.7950107970046568	10000.00921750162	0	0	0	0	0	0	2392733.876172588	2439182.751006588	5379477.737308078	258.6451140122173	-65.98415822311404	-84.55055211168383	-0.005132110661543948	-0.010409273770218	-0.007575996618658588
1	1	1	-1	-1	3.144747	-1	0.9943914271027022	0.7607451241027857	10000.00505579915	0	0	0	0	0	0	2527760.443314872	2406101.112448504	5332733.123198861	257.2466943365439	-47.78471101435554	-99.70335804980277	-0.004904750919804043	-0.009531552328499464	-0.008086696759384403
1	1	2	-1	-1	3.144747	-1	1.007951282025509	0.795003944465695	10000.00947656203	0	0	0	0	0	0	2392760.109699663	2439176.058289688	5379469.161492905	258.6445957865058	-65.98518912012659	-84.55133284311395	-0.005115367450835191	-0.010228877485241	-0.007665314534042659
1	1	1	-1	-1	3.246201	-1	0.994388522737826	0.760738961779334	10000.00529786292	0	0	0	0	0	0	2527786.542003453	2406096.264463825	5332723.007865689	257.2461967812922	-47.78567180759882	-99.70418131501233	-0.0049033296864405	-0.009361192324827074	-0.008164513622902974
1	1	2	-1	-1	3.246201	-1	1.007948766598753	0.7949970901571224	10000.00986177288	0	0	0	0	0	0	2392786.350210138	2439169.363791178	5379460.583394839	258.6440774228419	-65.98622029156529	-84.55211378237578	-0.005098619783061854	-0.01004843317853711	-0.007754656225972574
1	1	1	-1	-1	3.347628	-1	0.9943856191423716	0.7607328011287684	10000.00537776295	0	0	0	0	0	0	2527812.633631521	2406091.417553873	5332712.895031447	257.2456996752319	-47.7865948005464	-99.70502150432856	-0.00490196152256934	-0.009201385344083093	-0.008237466338358795
1	1	2	-1	-1	3.347628	-1	1.007946251837689	0.7949902377046817	10000.01008492149	0	0	0	0	0	0	2392812.583618128	2439162.670842919	5379452.007395946	258.6435628804613	-65.98721153997457	-84.55291415470577	-0.0050829602163762	-0.00987987735872687	-0.007838181268152535
1	1	1	-1	-1	3.449055	-1	0.9943827155300046	0.7607266405322715	10000.00557251927	0	0	0	0	0	0	2527838.725255121	2406086.570635536	5332702.782189692	257.2452025814984	-47.78751633252034	-99.70586236073849	-0.00490059540907402	-0.009041987249059334	-0.008310230581006243
1	1	2	-1	-1	3.449055	-1	1.00794373705602	0.7949833853058854	10000.01042289473	0	0	0	0	0	0	2392838.817021484	2439155.977885657	5379443.431389905	258.6430484814103	-65.9882012455371	-84.55371529132242	-0.005067342817548576	-0.009711782287136088	-0.007921480892160429
1	1	1	-1	-1	3.550482	-1	0.9943798119073396	0.7607204799793899	10000.00573188812	0	0	0	0	0	0	2527864.816814423	2406081.723601503	5332692.669237502	257.2447056518577	-47.788418245267	-99.70671217573084	-0.004899309985174827	-0.008888118852549812	-0.008380466941280544
1	1	2	-1	-1	3.550482	-1	1.007941222262134	0.7949765329499631	10000.01072554663	0	0	0	0	0	0	2392865.05035862	2439149.284804063	5379434.855278337	258.6425359938211	-65.98917030920984	-84.55452664787457	-0.005052313843109689	-0.009549796292439001	-0.008001702780997091
1	1	1	-1	-1	3.651909	-1	0.9943769082744423	0.7607143194700186	10000.00585439336	0	0	0	0	0	0	2527890.908308838	2406076.876450713	5332682.556173862	257.2442088878149	-47.78930035884694	-99.70757103146998	-0.004898105990923325	-0.008739830870659515	-0.00844815223449134
1	1	2	-1	-1	3.651909	-1	1.007938707456114	0.7949696806368071	10000.01099139452	0	0	0	0	0	0	2392891.283628928	2439142.591596998	5379426.279060276	258.6420254352248	-65.99011854167394	-84.55534831809526	-0.005037878689844375	-0.009393975404559184	-0.008078818706949983
1	1	1	-1	-1	3.753363	-1	0.9943740038515354	0.7607081573750222	10000.00609311927	0	0	0	0	0	0	2527917.006744892	2406072.028002779	5332672.44041119	257.2437120008891	-47.79018158145958	-99.70843062997753	-0.004896903494561152	-0.008591820504207136	-0.008515711738244525
1	1	2	-1	-1	3.753363	-1	1.007936191959868	0.7949628265534385	10000.01137347333	0	0	0	0	0	0	2392917.523878524	2439135.896600849	5379417.700552575	258.6415148501653	-65.99106584694377	-84.55617079140438	-0.005023472270174333	-0.009238465556676061	-0.008155781633298127
1	1	1	-1	-1	3.85479	-1	0.9943711001958678	0.7607019969563231	10000.00616832729	0	0	0	0	0	0	2527943.098120132	2406067.180646094	5332662.327138769	257.2432155190288	-47.79102974166298	-99.70930499201073	-0.004895754342493955	-0.008453095851645569	-0.008579059847324049
1	1	2	-1	-1	3.85479	-1	1.007933677126775	0.7949559743294246	10000.01159214042	0	0	0	0	0	0	2392943.757026864	2439129.203172301	5379409.124134295	258.6410075924905	-65.99197850259851	-84.55701008569756	-0.005010019606206003	-0.00909327655036549	-0.00822766401155213
1	1	1	-1	-1	3.956217	-1	0.9943681965227461	0.7606958365925476	10000.006369601	0	0	0	0	0	0	2527969.189495372	2406062.333289409	5332652.213866349	257.2427190371685	-47.79187790186638	-99.71017935404392	-0.004894605190426759	-0.008314371199084002	-0.008642407956403572
1	1	2	-1	-1	3.956217	-1	1.007931162272395	0.7949491221599301	10000.01193683874	0	0	0	0	0	0	2392969.990175204	2439122.509743752	5379400.547716015	258.6405003348157	-65.99289115825326	-84.55784937999073	-0.004996566942237674	-0.008948087544054921	-0.008299546389806133
1	1	1	-1	-1	4.057644	-1	0.9943652928389993	0.7606896762729034	10000.00651254691	0	0	0	0	0	0	2527995.280797278	2406057.485810931	5332642.100463116	257.2422227170944	-47.79270655130864	-99.71106262144632	-0.004893492803125218	-0.008181091370488267	-0.008703256733957554
1	1	2	-1	-1	4.057644	-1	1.007928647405525	0.7949422700336592	10000.01222329214	0	0	0	0	0	0	2392996.223248932	2439115.816184038	5379391.971171888	258.6399949710005	-65.99378344946678	-84.55869875775207	-0.0049836414748485	-0.008808966165031098	-0.008368484506317045
1	1	1	-1	-1	4.159071	-1	0.9943623891429852	0.7606835159999848	10000.00664150529	0	0	0	0	0	0	2528021.372043483	2406052.638239947	5332631.986960522	257.2417265199034	-47.79352038152157	-99.71195265284462	-0.004892408340182407	-0.008051947110688866	-0.008762207165939003
1	1	2	-1	-1	4.159071	-1	1.00792613252405	0.7949354179533271	10000.01249581017	0	0	0	0	0	0	2393022.45626599	2439109.122524698	5379383.394532174	258.6394910456501	-65.9946602730457	-84.55955579432415	-0.004971116435046328	-0.008674453399661702	-0.008435186334369528
1	1	1	-1	-1	4.260524999999999	-1	0.9943594846575921	0.76067735414048	10000.00686553121	0	0	0	0	0	0	2528047.47022286	2406047.78935879	5332621.870743295	257.2412302158525	-47.79433135966199	-99.71284432278101	-0.004891332089974355	-0.007923626655828185	-0.00882078410906155
1	1	2	-1	-1	4.260524999999999	-1	1.00792361695318	0.7949285641017502	10000.01286341622	0	0	0	0	0	0	2393048.696253812	2439102.427062206	5379374.815587732	258.6389872813996	-65.99553414257163	-84.56041463862393	-0.004958683657204688	-0.008540853795653726	-0.008501431645662891
1	1	1	-1	-1	4.361952	-1	0.9943565809367733	0.7606711939614463	10000.00694713183	0	0	0	0	0	0	2528073.561350021	2406042.941597548	5332611.757024782	257.2407342617807	-47.79511561737371	-99.71374786117741	-0.004890329553259362	-0.007802752510853843	-0.008875984088201602
1	1	2	-1	-1	4.361952	-1	1.00792110204228	0.7949217121135802	10000.01308869664	0	0	0	0	0	0	2393074.929150415	2439095.733197687	5379366.238739723	258.638486201263	-65.99638024928919	-84.56128689727745	-0.004947079855402081	-0.00841548602430521	-0.008563563015313028
1	1	1	-1	-1	4.463379	-1	0.9943536771985017	0.7606650338373339	10000.00715479814	0	0	0	0	0	0	2528099.652477181	2406038.093836306	5332601.643306268	257.2402383077089	-47.79589987508544	-99.71465139957381	-0.004889327016544369	-0.007681878365879503	-0.008931184067341658
1	1	2	-1	-1	4.463379	-1	1.007918587110093	0.7949148601799282	10000.01344000921	0	0	0	0	0	0	2393101.162047017	2439089.039333168	5379357.661891715	258.6379851211265	-65.99722635600673	-84.56215915593098	-0.004935476053599473	-0.008290118252956696	-0.008625694384963169
1	1	1	-1	-1	4.564806	-1	0.9943507734491382	0.7606588737580888	10000.00728118885	0	0	0	0	0	0	2528125.743521979	2406033.245948243	5332591.529436073	257.2397425095628	-47.79666502419596	-99.7155636639479	-0.004888391194675796	-0.007566378024432042	-0.008983938175270195
1	1	2	-1	-1	4.564806	-1	1.007916072164995	0.7949080082900398	10000.01371014211	0	0	0	0	0	0	2393127.39486071	2439082.345331677	5379349.084897026	258.6374858726515	-65.99805268348194	-84.56304120239695	-0.004924395767193942	-0.008170508403699865	-0.008684881393642319
1	1	1	-1	-1	4.666259999999999	-1	0.9943478689129293	0.7606527120882818	10000.00741653144	0	0	0	0	0	0	2528151.841465693	2406028.396697982	5332581.412787817	257.2392466675695	-47.79741957610189	-99.71648110341334	-0.004887492833389387	-0.007453884409188343	-0.009035323829522752
1	1	2	-1	-1	4.666259999999999	-1	1.007913556533856	0.7949011546246297	10000.01398930606	0	0	0	0	0	0	2393153.634610748	2439075.649470811	5379340.505536222	258.6369875265987	-65.99886805096718	-84.56392901609851	-0.004913608441470433	-0.008054121304712909	-0.008742419896239476
1	1	1	-1	-1	4.767687	-1	0.9943449651337039	0.7606465521109133	10000.00762567855	0	0	0	0	0	0	2528177.932443209	2406023.548707454	5332571.298793171	257.2387509952271	-47.79816943201699	-99.71740035136961	-0.004886592637387368	-0.007342679601169886	-0.009086129965185003
1	1	2	-1	-1	4.767687	-1	1.007911041552852	0.7948943028352236	10000.01434223726	0	0	0	0	0	0	2393179.867356813	2439068.955358596	5379331.928421108	258.6364897421714	-65.99967857267977	-84.56481888681355	-0.004902958206409482	-0.00793915818183539	-0.00879926793753791
1	1	1	-1	-1	4.869114	-1	0.9943420613439055	0.7606403921775913	10000.00771356001	0	0	0	0	0	0	2528204.023322532	2406018.700571094	5332561.18461512	257.2382555013403	-47.79889800526652	-99.7183293176987	-0.004885682622888503	-0.007237434973553483	-0.009134257086987441
1	1	2	-1	-1	4.869114	-1	1.007908526559744	0.7948874510885466	10000.01457403041	0	0	0	0	0	0	2393206.100004504	2439062.261088611	5379323.351128264	258.6359939888678	-66.0004671792054	-84.56571961521604	-0.00489294344193579	-0.007830790297487301	-0.008852919453726991
1	1	1	-1	-1	4.970541	-1	0.9943391575366551	0.7606342322991878	10000.00792750716	0	0	0	0	0	0	2528230.114201856	2406013.852434735	5332551.07043707	257.2377600074535	-47.79962657851605	-99.7192582840278	-0.004884772608389637	-0.007132190345937079	-0.00918238420878988
1	1	2	-1	-1	4.970541	-1	1.00790601154535	0.7948805993963861	10000.014931852	0	0	0	0	0	0	2393232.332652196	2439055.566818627	5379314.773835419	258.6354982355642	-66.00125578573105	-84.56662034361852	-0.004882928677462098	-0.007722422413139211	-0.008906570969916068
1	1	1	-1	-1	5.071968	-1	0.9943362537177433	0.7606280724665504	10000.00803722534	0	0	0	0	0	0	2528256.204989797	2406009.004167319	5332540.956086108	257.2372646687766	-47.80033664619414	-99.72019570262901	-0.00488394696991476	-0.007031957241622558	-0.009228161313428417
1	1	2	-1	-1	5.071968	-1	1.007903496517518	0.7948737477486659	10000.01518556569	0	0	0	0	0	0	2393258.565208746	2439048.872406596	5379306.196374701	258.6350042350431	-66.00202542591896	-84.56753046476678	-0.004873438141305706	-0.007619727935427436	-0.008957464954062289
1	1	1	-1	-1	5.173422	-1	0.9943333491107434	0.7606219110453496	10000.00817879755	0	0	0	0	0	0	2528282.302685724	2406004.154555629	5332530.838971896	257.2367692617897	-47.80103932590409	-99.72113683150157	-0.00488315565888274	-0.006933749391616372	-0.009272988404340505
1	1	2	-1	-1	5.173422	-1	1.007900980802103	0.79486689432744	10000.0154711958	0	0	0	0	0	0	2393284.80471112	2439042.176154346	5379297.616561918	258.634510820684	-66.00278750533917	-84.56844467399074	-0.004864159720722201	-0.007519329060744574	-0.00900724343221455
1	1	1	-1	-1	5.274849	-1	0.9943304452609568	0.7606157513161879	10000.00837300718	0	0	0	0	0	0	2528308.393407145	2405999.306194205	5332520.724494404	257.236274028957	-47.80173631112265	-99.72208022492592	-0.004882386816199024	-0.006837107408051398	-0.009317106046711069
1	1	2	-1	-1	5.274849	-1	1.007898465737202	0.7948600427816961	10000.01580944378	0	0	0	0	0	0	2393311.037201448	2439035.481640337	5379289.038978267	258.63401805817	-66.00354375944353	-84.56936142220309	-0.004855028849704824	-0.007420591438357495	-0.009056161215457541
1	1	1	-1	-1	5.376276	-1	0.9943275413988417	0.760609591633846	10000.00846706983	0	0	0	0	0	0	2528334.484038843	2405994.457708392	5332510.609845095	257.2357789265167	-47.80241632373337	-99.7230313689562	-0.004881686565992445	-0.006745210463321932	-0.00935907412225731
1	1	2	-1	-1	5.376276	-1	1.007895950658084	0.7948531912813924	10000.01604766119	0	0	0	0	0	0	2393337.269602668	2439028.786991241	5379280.461227536	258.6335268997982	-66.00428268649013	-84.57028674468384	-0.004846345077519954	-0.007326891011651714	-0.009102467391698649
1	1	1	-1	-1	5.477703	-1	0.994324637519276	0.7606034320064201	10000.0086871963	0	0	0	0	0	0	2528360.57467054	2405989.609222579	5332500.495195787	257.2352838240762	-47.80309633634409	-99.72398251298648	-0.004880986315785866	-0.006653313518592465	-0.009401042197803551
1	1	2	-1	-1	5.477703	-1	1.007893435557683	0.7948463398356034	10000.01641190704	0	0	0	0	0	0	2393363.502003887	2439022.092342145	5379271.883476805	258.6330357414265	-66.00502161353674	-84.57121206716461	-0.004837661305335085	-0.007233190584945932	-0.009148773567939758
1	1	1	-1	-1	5.579156999999999	-1	0.9943217328543827	0.7605972707860963	10000.00878016185	0	0	0	0	0	0	2528386.672147163	2405984.75931133	5332490.377659478	257.2347887387371	-47.80375876494644	-99.7249420183396	-0.004880250791825705	-0.006566255455209714	-0.009440776335980824
1	1	2	-1	-1	5.579156999999999	-1	1.007890919773716	0.7948394866111779	10000.01664916985	0	0	0	0	0	0	2393389.741288848	2439015.395764255	5379263.303253286	258.6325461297332	-66.00574271689709	-84.57214656878217	-0.004829448668783497	-0.007144907727732645	-0.009192542649999351
1	1	1	-1	-1	5.680584	-1	0.994318828946506	0.7605911112580921	10000.0089278454	0	0	0	0	0	0	2528412.762650169	2405979.91065284	5332480.262760989	257.2342938270857	-47.8044160145222	-99.72590355163429	-0.00487950558281259	-0.006480590106370199	-0.009479867664005531
1	1	2	-1	-1	5.680584	-1	1.007888404640031	0.794832635262504	10000.01694112737	0	0	0	0	0	0	2393415.973562757	2439008.700927226	5379254.725259895	258.6320571207133	-66.00645855370459	-84.57308333723235	-0.00482137154333519	-0.007058181008120818	-0.009235582152183747
1	1	1	-1	-1	5.782011	-1	0.9943159250228943	0.7605849517822915	10000.00910701882	0	0	0	0	0	0	2528438.853115696	2405975.061945626	5332470.147789185	257.2337989653042	-47.80506706982442	-99.7268679163092	-0.004878794995753582	-0.006396648138241099	-0.009518196237468787
1	1	2	-1	-1	5.782011	-1	1.007885889487537	0.7948257839651658	10000.01726460457	0	0	0	0	0	0	2393442.205799724	2439002.006037046	5379246.147195019	258.6315686894221	-66.00716813359281	-84.57402320279425	-0.004813488634532659	-0.006973283784043592	-0.009277670661304794
1	1	1	-1	-1	5.883438	-1	0.9943130210855518	0.7605787923555259	10000.00920717418	0	0	0	0	0	0	2528464.943499951	2405970.213132755	5332460.032658393	257.2333042116658	-47.80570469281612	-99.72783842084507	-0.004878159486560505	-0.006316443329069669	-0.009554870774174752
1	1	2	-1	-1	5.883438	-1	1.007883374319128	0.7948189327154493	10000.01750916988	0	0	0	0	0	0	2393468.437956584	2438995.31103161	5379237.568975123	258.6310815109381	-66.00786414532293	-84.5749697844571	-0.00480602688541534	-0.006892353829405924	-0.009317696937615694
1	1	1	-1	-1	5.984865	-1	0.99431011713076	0.7605726329836735	10000.00943339616	0	0	0	0	0	0	2528491.033884206	2405965.364319884	5332449.917527601	257.2328094580274	-47.80634231580781	-99.72880892538097	-0.004877523977367428	-0.00623623851989824	-0.009591545310880717
1	1	2	-1	-1	5.984865	-1	1.007880859129436	0.794812081520246	10000.01787976641	0	0	0	0	0	0	2393494.670113443	2438988.616026174	5379228.990755228	258.6305943324542	-66.00856015705303	-84.57591636611997	-0.00479856513629802	-0.006811423874768255	-0.009357723213926595
1	1	1	-1	-1	6.086319	-1	0.9943072123899239	0.7605664720200914	10000.00950950012	0	0	0	0	0	0	2528517.131104304	2405960.514078229	5332439.799488003	257.2323147038857	-47.80696319835421	-99.72978741388896	-0.004876939633140688	-0.006160589579391409	-0.009626080662270761
1	1	2	-1	-1	6.086319	-1	1.007878343255509	0.7948052285473011	10000.01810044423	0	0	0	0	0	0	2393520.909145823	2438981.919087593	5379220.410040822	258.6301085942748	-66.00923936303894	-84.57687161292955	-0.00479155799939351	-0.006735531427081446	-0.009395303346978903
1	1	1	-1	-1	6.187746	-1	0.9943043084054562	0.7605603127498163	10000.00966322981	0	0	0	0	0	0	2528543.22135995	2405955.665103176	5332429.684103235	257.2318201044114	-47.8075809514567	-99.73076699622598	-0.004876364442855254	-0.006085763118218587	-0.009660230130781673
1	1	2	-1	-1	6.187746	-1	1.007875828031006	0.7947983774511742	10000.01839871518	0	0	0	0	0	0	2393547.141176351	2438975.223904816	5379211.831573023	258.6296232605711	-66.00991540988841	-84.5778280802738	-0.004784632765065922	-0.006660545984385298	-0.009432442823376115
1	1	1	-1	-1	6.289173	-1	0.9943014044051831	0.7605541535318555	10000.00982728135	0	0	0	0	0	0	2528569.31156976	2405950.816071997	5332419.568627149	257.2313255597612	-47.80819207553573	-99.73174960346432	-0.004875788099303243	-0.006012763718527354	-0.009693568491803717
1	1	2	-1	-1	6.289173	-1	1.007873312787743	0.7947915264063214	10000.0187073499	0	0	0	0	0	0	2393573.373161997	2438968.528660506	5379203.253016004	258.6291385397714	-66.01058483913206	-84.57878782620409	-0.004777880962685523	-0.006587499989056445	-0.009468631914458731
1	1	1	-1	-1	6.3906	-1	0.9942985003900725	0.7605479943646779	10000.00993345026	0	0	0	0	0	0	2528595.401706727	2405945.966951622	5332409.453005941	257.2308311022379	-47.80879266472524	-99.73273701789654	-0.00487520992297209	-0.005942667897461064	-0.009725617835247021
1	1	2	-1	-1	6.3906	-1	1.007870797527205	0.794784675410834	10000.0189582007	0	0	0	0	0	0	2393599.605076317	2438961.83331841	5379194.6743172	258.628654793003	-66.01124375163123	-84.57975278248574	-0.0047714047795439	-0.006517536176772126	-0.00950331064668768
1	1	1	-1	-1	6.492054	-1	0.9942955955844544	0.7605418336128545	10000.01016576402	0	0	0	0	0	0	2528621.498788923	2405941.116540405	5332399.334691942	257.2303365130892	-47.80939341379238	-99.73372469517976	-0.00487463159272964	-0.005872553416795567	-0.009757675710267451
1	1	2	-1	-1	6.492054	-1	1.007868281575813	0.7947778226461363	10000.01933519915	0	0	0	0	0	0	2393625.843973607	2438955.136194005	5379186.093334734	258.6281709174606	-66.01190283953376	-84.58071799564003	-0.004764926872433857	-0.00644755374002951	-0.009537998610440485
1	1	1	-1	-1	6.593481	-1	0.9942926915381589	0.7605356745496386	10000.01022484526	0	0	0	0	0	0	2528647.588807424	2405936.267279012	5332389.218832791	257.2298421762731	-47.80997798522493	-99.73471943092895	-0.004874135693899653	-0.005806709293639175	-0.009787711004254991
1	1	2	-1	-1	6.593481	-1	1.00786576627864	0.7947709717520678	10000.01953911036	0	0	0	0	0	0	2393652.075772273	2438948.440696896	5379177.514403269	258.6276886440592	-66.01254585371964	-84.58169082432261	-0.004758882009848248	-0.006382360028338829	-0.009570278281343859
1	1	1	-1	-1	6.694908	-1	0.9942897874747317	0.7605295155408325	10000.01038455404	0	0	0	0	0	0	2528673.678815856	2405931.418005633	5332379.102953415	257.2293478497171	-47.81056119512844	-99.7357147889991	-0.004873646788758483	-0.005741226570035548	-0.009817575101561114
1	1	2	-1	-1	6.694908	-1	1.00786325096069	0.7947641209118625	10000.01984363329	0	0	0	0	0	0	2393678.307561109	2438941.745186611	5379168.935452026	258.6272064958957	-66.01318751652936	-84.58266432216894	-0.00475287381004051	-0.006317571781066769	-0.009602354029083243
1	1	1	-1	-1	6.796335	-1	0.9942868833953296	0.7605233565846083	10000.01053340454	0	0	0	0	0	0	2528699.768770098	2405926.568669484	5332368.986964374	257.2288535754639	-47.81113755041187	-99.73671327777078	-0.00487316674227414	-0.005677644132700332	-0.00984661392232534
1	1	2	-1	-1	6.796335	-1	1.007860735623925	0.7947572701230035	10000.02013736591	0	0	0	0	0	0	2393704.539297188	2438935.049607133	5379160.356393477	258.6267249679927	-66.01382240923181	-84.58364117002822	-0.00474708903443925	-0.006254738333198835	-0.009633446535290198
1	1	1	-1	-1	6.897761999999999	-1	0.9942839793002305	0.7605171976805255	10000.01064551622	0	0	0	0	0	0	2528725.858659911	2405921.719258702	5332358.87084494	257.228359363398	-47.81170575559865	-99.73771548892526	-0.00487269722867254	-0.005616321122819512	-0.00987467149489174
1	1	2	-1	-1	6.897761999999999	-1	1.007858220268809	0.7947504193848922	10000.02039444074	0	0	0	0	0	0	2393730.77097054	2438928.353945387	5379151.777207339	258.6262441775751	-66.01444925232276	-84.58462200103006	-0.004741569908700585	-0.006194229128533061	-0.00966336997399948
1	1	1	-1	-1	6.999216	-1	0.9942810744146039	0.7605110371918641	10000.01088377275	0	0	0	0	0	0	2528751.955494886	2405916.868557001	5332348.752032583	257.2278650197723	-47.8122741120424	-99.73871796686967	-0.004872227590085804	-0.00555498178867329	-0.009902736536420639
1	1	2	-1	-1	6.999216	-1	1.007855704222814	0.7947435668776374	10000.02077766787	0	0	0	0	0	0	2393757.009626797	2438921.656501246	5379143.195737412	258.6257632591706	-66.01507626228016	-84.5856030931304	-0.004736049313763433	-0.006133703816237899	-0.009693301378367268
1	1	1	-1	-1	7.100643	-1	0.9942781702875696	0.7605048783929274	10000.01092583779	0	0	0	0	0	0	2528778.045257219	2405912.019002365	5332338.635653337	257.2273709277845	-47.81282721043289	-99.73972707443448	-0.004871774373017737	-0.005497620575134663	-0.009928913168132433
1	1	2	-1	-1	7.100643	-1	1.007853188830385	0.7947367162418151	10000.02096486837	0	0	0	0	0	0	2393783.24117636	2438914.960680465	5379134.6162969	258.6252838422583	-66.01568829875758	-84.58659125589148	-0.004730822097922512	-0.006077651871304343	-0.009721092733373444
1	1	1	-1	-1	7.20207	-1	0.9942752661431122	0.7604987196488607	10000.01109145861	0	0	0	0	0	0	2528804.135018559	2405907.169446609	5332328.519272069	257.2268768367321	-47.81338019114278	-99.74073623572173	-0.004871321282898214	-0.005440290223636439	-0.009955075147482612
1	1	2	-1	-1	7.20207	-1	1.007850673416719	0.7947298656604496	10000.02127559297	0	0	0	0	0	0	2393809.472724957	2438908.264858446	5379126.036854407	258.6248044360457	-66.0163002198928	-84.58757947576629	-0.004725597156033677	-0.006021634648026838	-0.009748867479637598
1	1	1	-1	-1	7.303496999999999	-1	0.994272361982432	0.7604925609577666	10000.011225041	0	0	0	0	0	0	2528830.224717362	2405902.319822039	5332318.402762512	257.2263827992402	-47.81392624062103	-99.74174856803252	-0.004870884068496317	-0.005384877531907307	-0.009980409400486624
1	1	2	-1	-1	7.303496999999999	-1	1.0078481579841	0.7947230151306037	10000.02155436203	0	0	0	0	0	0	2393835.704212976	2438901.568960121	5379117.457286245	258.6243256506793	-66.01690538229147	-84.58857104079073	-0.004720585983244386	-0.005967531599054835	-0.009775641406295882
1	1	1	-1	-1	7.404923999999999	-1	0.9942694578054017	0.7604864023198455	10000.01134303398	0	0	0	0	0	0	2528856.314360138	2405897.470135816	5332308.286138017	257.2258888097352	-47.81446608014483	-99.74276374138407	-0.004870461077754549	-0.005331182944608941	-0.01000500206192902
1	1	2	-1	-1	7.404923999999999	-1	1.007845642532288	0.7947161646525889	10000.02181761991	0	0	0	0	0	0	2393861.935646717	2438894.872993434	5379108.877605494	258.623847421553	-66.01750448928064	-84.58956560286208	-0.004715766334333839	-0.005915143531754001	-0.009801518660548059
1	1	1	-1	-1	7.506378	-1	0.9942665528379533	0.7604802420972085	10000.0115667535	0	0	0	0	0	0	2528882.410939935	2405892.619149927	5332298.166803795	257.2253946949932	-47.81500522387181	-99.7437795683294	-0.004870041227824779	-0.005277685405695137	-0.010029497610533
1	1	2	-1	-1	7.506378	-1	1.007843126389844	0.7947093124051503	10000.02218662016	0	0	0	0	0	0	2393888.174055496	2438888.175234623	5379100.295624486	258.6233691401353	-66.01810294484306	-84.59056083163932	-0.004710968154685691	-0.005862991734753006	-0.009827285282530572
1	1	1	-1	-1	7.607805	-1	0.9942636486280971	0.7604740835658397	10000.01161215734	0	0	0	0	0	0	2528908.500454291	2405887.769325764	5332288.049914249	257.2249008050962	-47.81553171308965	-99.74480083800836	-0.00486966997491441	-0.005227351712150006	-0.01005244181388181
1	1	2	-1	-1	7.607805	-1	1.007840610899774	0.794702462030638	10000.02237746771	0	0	0	0	0	0	2393914.405365115	2438881.479114506	5379091.715683988	258.6228921039276	-66.01868915623024	-84.59156178580909	-0.00470651032662775	-0.005814582762077239	-0.009851293646052063
1	1	1	-1	-1	7.709232	-1	0.994260744400796	0.7604679250893753	10000.01178362779	0	0	0	0	0	0	2528934.589968646	2405882.919501602	5332277.933024704	257.2244069151994	-47.81605820230751	-99.74582210768732	-0.004869298722004041	-0.005177018018604874	-0.01007538601723061
1	1	2	-1	-1	7.709232	-1	1.007838095388427	0.7946956117106333	10000.02269434743	0	0	0	0	0	0	2393940.636674734	2438874.78299439	5379083.135743491	258.6224150677199	-66.01927536761741	-84.59256273997886	-0.00470205249856981	-0.005766173789401473	-0.009875302009573558
1	1	1	-1	-1	7.810658999999999	-1	0.9942578401569634	0.7604617666663706	10000.01190188061	0	0	0	0	0	0	2528960.679412122	2405878.069603051	5332267.815988033	257.2239130771619	-47.81657779256722	-99.74684652963673	-0.00486893697885679	-0.005128575727518234	-0.01009752617610746
1	1	2	-1	-1	7.810658999999999	-1	1.007835579857933	0.7946887614423986	10000.02295811009	0	0	0	0	0	0	2393966.867915986	2438868.086791266	5379074.555658761	258.6219386399606	-66.0198549539076	-84.59356697434953	-0.00469777530125583	-0.005719676967035746	-0.009898350250549677
1	1	1	-1	-1	7.912113	-1	0.9942549351231794	0.7604556066579399	10000.01202574652	0	0	0	0	0	0	2528986.775752991	2405873.218363442	5332257.696159286	257.2234191425273	-47.81709288322245	-99.74787334344606	-0.004868581532482946	-0.005081392062517101	-0.01011913169869634
1	1	2	-1	-1	7.912113	-1	1.00783306363795	0.7946819094033016	10000.0232275892	0	0	0	0	0	0	2393993.106094069	2438861.388749802	5379065.97319304	258.6214624944134	-66.02043024067126	-84.59457368120916	-0.004693618396864557	-0.005674453236672273	-0.009920759171324903
1	1	1	-1	-1	8.013539999999999	-1	0.9942520308452358	0.7604494483435179	10000.01223230734	0	0	0	0	0	0	2529012.865131691	2405868.368397305	5332247.578987976	257.222925350084	-47.81760627246074	-99.74890059838054	-0.004868236296805958	-0.005034618022193462	-0.01014053180879914
1	1	2	-1	-1	8.013539999999999	-1	1.007830548066789	0.7946750592416642	10000.02357972041	0	0	0	0	0	0	2394019.337272876	2438854.6924712	5379057.39297631	258.6209866132422	-66.02100388213903	-84.59558085820655	-0.004689500272957343	-0.005629676656941695	-0.009942944413528765
1	1	1	-1	-1	8.114967	-1	0.9942491265509451	0.7604432900822644	10000.01228350867	0	0	0	0	0	0	2529038.954399153	2405863.518316994	5332237.461584553	257.2224316273543	-47.81810950772828	-99.74993249037064	-0.004867956723893693	-0.004990421314664428	-0.01016063592578658
1	1	2	-1	-1	8.114967	-1	1.007828032477341	0.7946682091306942	10000.02377668396	0	0	0	0	0	0	2394045.568344602	2438847.996064783	5379048.812531967	258.6205116256053	-66.02156783789735	-84.59659282584464	-0.0046856266891439	-0.005587724373473458	-0.009963716486810145
1	1	1	-1	-1	8.216393999999999	-1	0.9942462222392104	0.7604371318759124	10000.0124607766	0	0	0	0	0	0	2529065.043666616	2405858.668236683	5332227.344181131	257.2219379046247	-47.81861274299581	-99.75096438236072	-0.004867677150981429	-0.004946224607135397	-0.01018074004277403
1	1	2	-1	-1	8.216393999999999	-1	1.007825516866616	0.7946613590742307	10000.02409967594	0	0	0	0	0	0	2394071.799416329	2438841.299658365	5379040.232087625	258.6200366379686	-66.02213179365567	-84.59760479348273	-0.004681753105330456	-0.005545772090005222	-0.009984488560091521
1	1	1	-1	-1	8.317821	-1	0.9942433179105883	0.7604309737235828	10000.01256363839	0	0	0	0	0	0	2529091.132854854	2405853.818076773	5332217.22661158	257.2214442328814	-47.81910919414768	-99.75199937612555	-0.004867356088648796	-0.00490381916411893	-0.01020010718949454
1	1	2	-1	-1	8.317821	-1	1.007823001236507	0.7946545090698427	10000.02434839308	0	0	0	0	0	0	2394098.030411929	2438834.603162539	5379031.651480339	258.6195622344461	-66.02268934099699	-84.59861993207394	-0.004678081019463128	-0.005505629392163845	-0.01000431362509352
1	1	1	-1	-1	8.419274999999999	-1	0.9942404127916551	0.7604248139864318	10000.01269327942	0	0	0	0	0	0	2529117.228948802	2405848.966586291	5332207.106266377	257.2209504549929	-47.81960241496184	-99.75303618277738	-0.004867014376943615	-0.004862290258904559	-0.01021911421825043
1	1	2	-1	-1	8.419274999999999	-1	1.007820484916388	0.7946476572952975	10000.0246239705	0	0	0	0	0	0	2394124.268352522	2438827.904839783	5379023.068508123	258.6190879941486	-66.02324386047658	-84.5996369125544	-0.004674507826956102	-0.005466372915186682	-0.01002367459033819
1	1	1	-1	-1	8.520702	-1	0.9942375084285314	0.7604186559433016	10000.01288267598	0	0	0	0	0	0	2529143.31807159	2405844.116361153	5332196.988559327	257.2204568241293	-47.82009339981192	-99.75407367505156	-0.004866684428372514	-0.004821317794669315	-0.01023786101899423
1	1	2	-1	-1	8.520702	-1	1.007817969245213	0.7946408073980206	10000.02495928016	0	0	0	0	0	0	2394150.499285273	2438821.208270594	5379014.487765965	258.6186140617024	-66.0237962599161	-84.60065459913659	-0.004670977245577126	-0.005427738302996458	-0.01004275168165357
1	1	1	-1	-1	8.622128999999999	-1	0.9942346040484095	0.7604124979543677	10000.01293962821	0	0	0	0	0	0	2529169.407092239	2405839.266035466	5332186.870637106	257.2199632541556	-47.82057617762166	-99.75511491676905	-0.00486639999414184	-0.004782472009823538	-0.0102556128158242
1	1	2	-1	-1	8.622128999999999	-1	1.007815453554919	0.7946339575524792	10000.02516232338	0	0	0	0	0	0	2394176.730120043	2438814.511588082	5379005.906812727	258.6181408375456	-66.02434096795952	-84.60167609444454	-0.004667609113191173	-0.005391487840794126	-0.01006074193189387
1	1	1	-1	-1	8.723556	-1	0.9942316996508449	0.7604063400203331	10000.01312264521	0	0	0	0	0	0	2529195.496112887	2405834.415709779	5332176.752714884	257.219469684182	-47.8210589554314	-99.75615615848653	-0.004866115559911168	-0.00474362622497776	-0.01027336461265418
1	1	2	-1	-1	8.723556	-1	1.00781293784335	0.7946271077614425	10000.02549139876	0	0	0	0	0	0	2394202.960954814	2438807.81490557	5378997.325859488	258.6176676133889	-66.02488567600295	-84.60269758975251	-0.004664240980805221	-0.005355237378591791	-0.01007873218213416
1	1	1	-1	-1	8.825009999999999	-1	0.9942287944628388	0.7604001805017124	10000.01321008988	0	0	0	0	0	0	2529221.59199087	2405829.564008369	5332166.631913931	257.2189760282322	-47.82153525658715	-99.75720069942226	-0.004865851500461577	-0.004706408778980159	-0.01029034704420067
1	1	2	-1	-1	8.825009999999999	-1	1.007810421442435	0.7946202561994243	10000.02572508622	0	0	0	0	0	0	2394229.19868837	2438801.116344763	5378988.742440162	258.6171948264429	-66.02542439202504	-84.60372239538637	-0.00466107132076362	-0.005320673718938617	-0.01009579471629924
1	1	1	-1	-1	8.926437	-1	0.9942258900306046	0.7603940226771422	10000.01334544085	0	0	0	0	0	0	2529247.680893071	2405824.713568342	5332156.513741112	257.218482519665	-47.82200910301994	-99.75824602747868	-0.004865594718979137	-0.00466977878350306	-0.01030705213111035
1	1	2	-1	-1	8.926437	-1	1.007807905690505	0.7946134065145921	10000.02600667067	0	0	0	0	0	0	2394255.429409697	2438794.419532941	5378980.16124106	258.6167223638115	-66.02596080171006	-84.60474799916058	-0.004657972771020581	-0.005286717165343574	-0.0101125240520599
1	1	1	-1	-1	9.027863999999999	-1	0.9942229855809108	0.7603878649074974	10000.01351762284	0	0	0	0	0	0	2529273.769760027	2405819.863094922	5332146.395493423	257.2179890268374	-47.82248045234643	-99.7592924970146	-0.004865351792594293	-0.004633800643870215	-0.010323472586841
1	1	2	-1	-1	9.027863999999999	-1	1.00780538991787	0.7946065568835341	10000.02632512804	0	0	0	0	0	0	2394281.660097315	2438787.722683222	5378971.579968497	258.6162501107049	-66.02649491247848	-84.60577474115259	-0.004654940403754844	-0.005253469440899277	-0.01012894061052951
1	1	1	-1	-1	9.129291	-1	0.9942200811137294	0.7603817071928229	10000.01358027942	0	0	0	0	0	0	2529299.858533926	2405815.012533342	5332136.277048066	257.2174955755637	-47.82294520912949	-99.76034198014005	-0.004865145444681469	-0.00459954345139036	-0.01033914159542038
1	1	2	-1	-1	9.129291	-1	1.007802874125461	0.7945997073050524	10000.02653421927	0	0	0	0	0	0	2394307.89069594	2438781.025733452	5378962.998501988	258.6157784107594	-66.02702295393883	-84.60680448812286	-0.004652082763074591	-0.005222093077308283	-0.01014453141405145
1	1	1	-1	-1	9.230718	-1	0.9942171766291066	0.7603755495330451	10000.01376899891	0	0	0	0	0	0	2529325.947307826	2405810.161971761	5332126.158602711	257.21700212429	-47.82340996591254	-99.76139146326551	-0.004864939096768646	-0.004565286258910505	-0.01035481060399977
1	1	2	-1	-1	9.230718	-1	1.007800358311778	0.794592857781074	10000.02686934359	0	0	0	0	0	0	2394334.121294565	2438774.328783682	5378954.417035479	258.6153067108137	-66.02755099539918	-84.60783423509316	-0.004649225122394337	-0.005190716713717288	-0.01016012221757339
1	1	1	-1	-1	9.332172	-1	0.994214271353598	0.7603693902894191	10000.01384096127	0	0	0	0	0	0	2529352.042930654	2405805.310029683	5332116.037259251	257.2165085899047	-47.82386844666888	-99.76244414828088	-0.004864705796799731	-0.004532552674830228	-0.01036978421543134
1	1	2	-1	-1	9.332172	-1	1.007797841808433	0.794586006486557	10000.02708791662	0	0	0	0	0	0	2394360.358784185	2438767.629949501	5378945.833083857	258.6148354190371	-66.02807335540608	-84.6088671401414	-0.004646520020424996	-0.00516100416811537	-0.01017489559067705
1	1	1	-1	-1	9.433598999999999	-1	0.9942113668337679	0.7603632327399548	10000.01398199983	0	0	0	0	0	0	2529378.131586136	2405800.459357912	5332105.918561403	257.2160151981818	-47.82432530408238	-99.76349723874273	-0.004864466249076757	-0.004500187367339675	-0.01038458972902773
1	1	2	-1	-1	9.433598999999999	-1	1.007795325953843	0.7945791570694869	10000.02737553883	0	0	0	0	0	0	2394386.589269714	2438760.932874232	5378937.251369599	258.6143643778957	-66.02859421059983	-84.60990044685474	-0.004643851601135607	-0.005131691807213797	-0.01018947229612749
1	1	1	-1	-1	9.535026	-1	0.9942084622962849	0.7603570752457205	10000.01413692068	0	0	0	0	0	0	2529404.220197323	2405795.608645624	5332095.79976877	257.215521825659	-47.82477938910835	-99.76455159888344	-0.004864241645502948	-0.004468568487493271	-0.01039906158025785
1	1	2	-1	-1	9.535026	-1	1.007792810078503	0.7945723077062478	10000.02767710853	0	0	0	0	0	0	2394412.819712993	2438754.235752651	5378928.669562341	258.6138935655482	-66.02911256162551	-84.61093499091047	-0.004641239485346678	-0.005103101739262788	-0.01020366166772042
1	1	1	-1	-1	9.636452999999999	-1	0.9942055577409598	0.7603509178070161	10000.01420524251	0	0	0	0	0	0	2529430.308724533	2405790.757856525	5332085.680796452	257.2150284895349	-47.82522821834418	-99.76560836603463	-0.004864045372496391	-0.004438364657666831	-0.01041290088667031
1	1	2	-1	-1	9.636452999999999	-1	1.007790294182881	0.7945654583962375	10000.02789222542	0	0	0	0	0	0	2394439.050076172	2438747.538543274	5378920.087578775	258.6134231869398	-66.02962616534167	-84.61197188067433	-0.004638734107658988	-0.005075880967669071	-0.01021711674606053
1	1	1	-1	-1	9.737907	-1	0.9942026523949911	0.7603447587841096	10000.01439969614	0	0	0	0	0	0	2529456.404196544	2405785.905776139	5332075.559130449	257.214535022084	-47.82567716705896	-99.76666541449859	-0.004863849047241704	-0.004408152787541404	-0.01042674387712424
1	1	2	-1	-1	9.737907	-1	1.007787777596244	0.7945586073174555	10000.02823347971	0	0	0	0	0	0	2394465.287421908	2438740.839551092	5378911.503310673	258.612952683116	-66.03013990577981	-84.61300904645962	-0.004636228063036483	-0.005048652949870369	-0.01023057540616009
1	1	1	-1	-1	9.839333999999999	-1	0.9941997478040782	0.7603386014563192	10000.0144560663	0	0	0	0	0	0	2529482.492619477	2405781.054893216	5332065.439934264	257.214041722993	-47.82611984237406	-99.76772499597044	-0.004863676549868278	-0.004379355822042281	-0.01043993519678538
1	1	2	-1	-1	9.839333999999999	-1	1.007785261659101	0.7945517581151423	10000.02843680605	0	0	0	0	0	0	2394491.517685741	2438734.142234087	5378902.921107458	258.6124828010523	-66.03064802145376	-84.61404864818147	-0.004633902470458402	-0.005022967760024658	-0.01024324978697508
1	1	1	-1	-1	9.940761	-1	0.9941968431956305	0.7603324441835722	10000.01460274775	0	0	0	0	0	0	2529508.581028294	2405776.203997593	5332055.320707775	257.2135484289151	-47.82656168464278	-99.76878495841234	-0.004863507270964096	-0.004350749301505997	-0.01045303879952145
1	1	2	-1	-1	9.940761	-1	1.007782745700826	0.7945449089671516	10000.02873043902	0	0	0	0	0	0	2394517.747936126	2438727.444902511	5378894.33887451	258.6120129862049	-66.03115539422026	-84.61508861701668	-0.004631601215101653	-0.004997490439412144	-0.01025581848602086
1	1	1	-1	-1	10.042188	-1	0.9941939385692857	0.7603262869664418	10000.01474036928	0	0	0	0	0	0	2529534.669383767	2405771.353054723	5332045.20136641	257.2130551555497	-47.82700056105978	-99.76984627600932	-0.004863330205060506	-0.004322841134328159	-0.01046580271311959
1	1	2	-1	-1	10.042188	-1	1.007780229721709	0.79453805987311	10000.02901509497	0	0	0	0	0	0	2394543.978135746	2438720.74751654	5378885.75652886	258.611543410454	-66.03166015362773	-84.61612988198272	-0.004629358337084291	-0.004972786451218377	-0.01026802703460536
1	1	1	-1	-1	10.143615	-1	0.9941910339248587	0.7603201298052198	10000.01481431723	0	0	0	0	0	0	2529560.757664337	2405766.502045512	5332035.08186374	257.2125619112679	-47.82743527292543	-99.7709094964704	-0.004863142204908837	-0.004295913571933692	-0.01047808964641901
1	1	2	-1	-1	10.143615	-1	1.007777713721924	0.7945312108327937	10000.02923621051	0	0	0	0	0	0	2394570.208264083	2438714.050054187	5378877.174024954	258.6110741704346	-66.03216124344247	-84.61717296693297	-0.004627197430604048	-0.004949168350934776	-0.01027972987177489
1	1	1	-1	-1	10.245069	-1	0.994188128489766	0.7603139710598668	10000.01501439977	0	0	0	0	0	0	2529586.852889642	2405761.649744955	5332024.959667247	257.2120685356838	-47.82787010051194	-99.77197299996217	-0.004862954154711282	-0.004268978841386911	-0.01049037985051614
1	1	2	-1	-1	10.245069	-1	1.007775197031098	0.7945243600237764	10000.02958346531	0	0	0	0	0	0	2394596.445374914	2438707.350808962	5378868.589236377	258.6106048055028	-66.03266246664798	-84.61821632955379	-0.004625035948887675	-0.004925543963482003	-0.01029143582425497
1	1	1	-1	-1	10.346496	-1	0.9941852238092945	0.7603078140102802	10000.01505520381	0	0	0	0	0	0	2529612.941057593	2405756.798637494	5332014.839921348	257.2115753234976	-47.82829891153759	-99.77303891998534	-0.004862798135031917	-0.004243411339718632	-0.01050200732274346
1	1	2	-1	-1	10.346496	-1	1.007772680989484	0.7945175110915532	10000.02977162693	0	0	0	0	0	0	2394622.675396189	2438700.653233074	5378860.006493867	258.6101360314677	-66.03315841921564	-84.61926195556015	-0.004623037845761719	-0.004903466753799348	-0.01030241348942152
1	1	1	-1	-1	10.447923	-1	0.9941823191113256	0.7603016570156779	10000.01520749554	0	0	0	0	0	0	2529639.029219789	2405751.947525012	5332004.72016302	257.2110821129516	-47.82872742102698	-99.77410497795769	-0.004862643749572715	-0.004217913337920201	-0.01051360109613821
1	1	2	-1	-1	10.447923	-1	1.007770164926637	0.7945106622137827	10000.03007124923	0	0	0	0	0	0	2394648.905411993	2438693.955651385	5378851.423739166	258.6096672812446	-66.03365410926708	-84.62030771141593	-0.004621048061978948	-0.004881468284495085	-0.0103133540978899
1	1	1	-1	-1	10.54935	-1	0.9941794143951725	0.7602955000771454	10000.01532777958	0	0	0	0	0	0	2529665.117319596	2405747.096358879	5331994.600269576	257.2105889202515	-47.82915284903539	-99.77517244727945	-0.00486250129691382	-0.0041932153984055	-0.01052489224794071
1	1	2	-1	-1	10.54935	-1	1.00776764884282	0.794503813390127	10000.03033897188	0	0	0	0	0	0	2394675.135368541	2438687.25800747	5378842.840851934	258.6091987729637	-66.03414714501484	-84.6213547779841	-0.004619116132772945	-0.00486018493979087	-0.01032389705589674
1	1	1	-1	-1	10.650777	-1	0.9941765096607943	0.7602893431947473	10000.01540731825	0	0	0	0	0	0	2529691.205353564	2405742.245136132	5331984.480233548	257.2100957463835	-47.82957502528521	-99.77624140593946	-0.004862371436442188	-0.004169361731303155	-0.01053586405577847
1	1	2	-1	-1	10.650777	-1	1.00776513273805	0.7944969646205633	10000.03056606837	0	0	0	0	0	0	2394701.365262561	2438680.56029789	5378834.257824847	258.6087305199941	-66.03463737978649	-84.6224032276925	-0.004617245255092661	-0.004839656236298341	-0.01033402038993019
1	1	1	-1	-1	10.752231	-1	0.9941736041356924	0.7602831847283458	10000.0156063959	0	0	0	0	0	0	2529717.300329598	2405737.392619775	5331974.357497901	257.2096024420395	-47.82999719230442	-99.77731070479828	-0.004862241799084884	-0.004145527585438946	-0.01054682570898172
1	1	2	-1	-1	10.752231	-1	1.00776261594222	0.7944901140823584	10000.03091271594	0	0	0	0	0	0	2394727.602136541	2438673.8608028	5378825.672507403	258.608262151649	-66.03512764213846	-84.62345200754579	-0.004615377181998425	-0.004819153761989981	-0.0103441316019115
1	1	1	-1	-1	10.853658	-1	0.9941706993648359	0.7602770279582672	10000.01563819684	0	0	0	0	0	0	2529743.388245211	2405732.54129665	5331964.237204891	257.2091093048825	-47.83041383964672	-99.77838219302372	-0.004862123653561544	-0.004122850085809537	-0.01055720307803548
1	1	2	-1	-1	10.853658	-1	1.007760099795302	0.7944832654212981	10000.03109227773	0	0	0	0	0	0	2394753.831918251	2438667.162976365	5378817.089228291	258.6077943203018	-66.03561319786499	-84.62450277794721	-0.004613656449744629	-0.004800065947093105	-0.01035358132169053
1	1	1	-1	-1	10.955085	-1	0.9941677945765427	0.7602708712430768	10000.01579606533	0	0	0	0	0	0	2529769.476160825	2405727.689973525	5331954.11691188	257.2086161677256	-47.83083048698902	-99.77945368124912	-0.004862005508038203	-0.00410017258618013	-0.01056758044708923
1	1	2	-1	-1	10.955085	-1	1.007757583627115	0.7944764168147365	10000.03139786981	0	0	0	0	0	0	2394780.061699961	2438660.46514993	5378808.505949178	258.6073264889546	-66.03609875359153	-84.62555354834861	-0.004611935717490832	-0.004780978132196227	-0.01036303104146957
1	1	1	-1	-1	11.056512	-1	0.9941648897697435	0.7602647145844649	10000.01589897275	0	0	0	0	0	0	2529795.564005003	2405722.838590614	5331943.996463388	257.2081230471365	-47.8312439805389	-99.78052661335607	-0.004861875865888105	-0.004078228794129359	-0.01057763596464132
1	1	2	-1	-1	11.056512	-1	1.007755067437801	0.7944695682624906	10000.03164863866	0	0	0	0	0	0	2394806.291413943	2438653.767253634	5378799.922517611	258.6068588975552	-66.0365816690707	-84.62660562258321	-0.004610264310388375	-0.004762584545453992	-0.01037212223069228
1	1	1	-1	-1	11.157966	-1	0.9941619841713873	0.7602585563431952	10000.0159841096	0	0	0	0	0	0	2529821.658737009	2405717.985868729	5331933.873197213	257.2076298084497	-47.83165507690101	-99.78160097896257	-0.004861737049425826	-0.004056862457052489	-0.01058743828751745
1	1	2	-1	-1	11.157966	-1	1.007752550557511	0.7944627179415256	10000.03188177478	0	0	0	0	0	0	2394832.528056466	2438647.067518809	5378791.336679921	258.6063913724404	-66.03706261410986	-84.62765901342681	-0.004608631671777537	-0.004744737972671258	-0.01038093080873937
1	1	1	-1	-1	11.259393	-1	0.994159079328682	0.7602523997959983	10000.01616753079	0	0	0	0	0	0	2529847.746513453	2405713.134429245	5331923.752601239	257.2071367029972	-47.83206560652515	-99.78267526826474	-0.004861602252278874	-0.004035602866801445	-0.01059719164642928
1	1	2	-1	-1	11.259393	-1	1.007750034325776	0.7944558694981346	10000.03221314773	0	0	0	0	0	0	2394858.757706235	2438640.369556366	5378782.753103747	258.6059240050858	-66.03754305484406	-84.62871230976792	-0.004607014275874875	-0.004727003522732417	-0.01038967964519959
